[
    {
        "FID": 0,
        "ID": 145,
        "name": "SIN name",
        "coordinates": [
            -92.952839060577261,
            17.997345256857937
        ]
    },
    {
        "FID": 1,
        "ID": 147,
        "name": "CENTRO DE SALUD REGIONAL EL RECREO",
        "coordinates": [
            -92.922503640145905,
            18.011075785590801
        ]
    },
    {
        "FID": 2,
        "ID": 148,
        "name": "REHABILITACION",
        "coordinates": [
            -92.921116848986244,
            18.013769492058238
        ]
    },
    {
        "FID": 3,
        "ID": 149,
        "name": "PSIQUIATRICO",
        "coordinates": [
            -92.920767277659081,
            18.014319840818796
        ]
    },
    {
        "FID": 4,
        "ID": 150,
        "name": "ROVIROSA",
        "coordinates": [
            -92.924415259602512,
            18.012905749402684
        ]
    },
    {
        "FID": 5,
        "ID": 151,
        "name": "CENTRO DE SALUD",
        "coordinates": [
            -92.960570270518517,
            17.991615357025868
        ]
    },
    {
        "FID": 6,
        "ID": 152,
        "name": "SIN name",
        "coordinates": [
            -92.943619518957618,
            17.990330592758177
        ]
    },
    {
        "FID": 7,
        "ID": 153,
        "name": "CECAT (CRUZ ROJA MEXICANA)",
        "coordinates": [
            -92.928639125219775,
            17.988855133742156
        ]
    },
    {
        "FID": 8,
        "ID": 154,
        "name": "MILITAR",
        "coordinates": [
            -92.940437469425319,
            17.986636969013116
        ]
    },
    {
        "FID": 9,
        "ID": 156,
        "name": "CENTRO DE SALUD",
        "coordinates": [
            -92.918668844592631,
            17.982889105775769
        ]
    },
    {
        "FID": 10,
        "ID": 157,
        "name": "SIN name",
        "coordinates": [
            -92.936995934216753,
            17.982150203248278
        ]
    },
    {
        "FID": 11,
        "ID": 158,
        "name": "DANIEL GURRIA URGELL",
        "coordinates": [
            -92.944554052042847,
            17.983592655296913
        ]
    },
    {
        "FID": 12,
        "ID": 159,
        "name": "JUCHIMAN",
        "coordinates": [
            -92.953138342905575,
            17.980936275985655
        ]
    },
    {
        "FID": 13,
        "ID": 162,
        "name": "CENTRO DE SALUD",
        "coordinates": [
            -92.929769589618545,
            17.999123781796303
        ]
    },
    {
        "FID": 14,
        "ID": 164,
        "name": "IMSS",
        "coordinates": [
            -92.933533711163165,
            17.982042212688754
        ]
    },
    {
        "FID": 15,
        "ID": 165,
        "name": "SIN name",
        "coordinates": [
            -92.936645396905391,
            17.980505016566209
        ]
    },
    {
        "FID": 16,
        "ID": 166,
        "name": "IMSS No 44",
        "coordinates": [
            -92.937217736931785,
            17.974324846602055
        ]
    },
    {
        "FID": 17,
        "ID": 167,
        "name": "SIN name",
        "coordinates": [
            -92.941247887269085,
            17.981181046491592
        ]
    },
    {
        "FID": 18,
        "ID": 168,
        "name": "SIN name",
        "coordinates": [
            -92.927333080743153,
            17.977068962435784
        ]
    },
    {
        "FID": 19,
        "ID": 169,
        "name": "CERACOM",
        "coordinates": [
            -92.933918445456982,
            17.978385955799482
        ]
    },
    {
        "FID": 20,
        "ID": 170,
        "name": "MAYA SIGLO XXI",
        "coordinates": [
            -92.930012944218149,
            17.977753044143437
        ]
    },
    {
        "FID": 21,
        "ID": 171,
        "name": "SIN name",
        "coordinates": [
            -92.961210167001312,
            17.975522378610048
        ]
    },
    {
        "FID": 22,
        "ID": 172,
        "name": "RODOLFO NIETO PADRON",
        "coordinates": [
            -92.952823127599402,
            17.977089724542736
        ]
    },
    {
        "FID": 23,
        "ID": 173,
        "name": "DE LA MUJER",
        "coordinates": [
            -92.952976321404023,
            17.976483996775652
        ]
    },
    {
        "FID": 24,
        "ID": 174,
        "name": "ODONTOLOGICA",
        "coordinates": [
            -92.954831479891595,
            17.978421994930791
        ]
    },
    {
        "FID": 25,
        "ID": 175,
        "name": "CERACOM",
        "coordinates": [
            -92.933703172233876,
            17.977805894852025
        ]
    },
    {
        "FID": 26,
        "ID": 176,
        "name": "CRUZ ROJA",
        "coordinates": [
            -92.935374641562817,
            17.973875431524228
        ]
    },
    {
        "FID": 27,
        "ID": 177,
        "name": "SIN name",
        "coordinates": [
            -92.932829229618335,
            17.973887455620371
        ]
    },
    {
        "FID": 28,
        "ID": 178,
        "name": "LA CEIBA",
        "coordinates": [
            -92.944626979331247,
            17.973929847153371
        ]
    },
    {
        "FID": 29,
        "ID": 181,
        "name": "CENTRO DE SALUD",
        "coordinates": [
            -92.931182742352888,
            17.97208631556127
        ]
    },
    {
        "FID": 30,
        "ID": 182,
        "name": "SIN name",
        "coordinates": [
            -92.958418878168345,
            17.97007959470448
        ]
    },
    {
        "FID": 31,
        "ID": 183,
        "name": "CENTRO DE SALUD",
        "coordinates": [
            -92.969475323676548,
            17.972156717551655
        ]
    },
    {
        "FID": 32,
        "ID": 184,
        "name": "SIN name",
        "coordinates": [
            -92.992001678955418,
            17.973868856550322
        ]
    },
    {
        "FID": 33,
        "ID": 185,
        "name": "SIN name",
        "coordinates": [
            -92.949816771310168,
            17.957279148176685
        ]
    },
    {
        "FID": 34,
        "ID": 188,
        "name": "UNIDAD MEDICA FAMILIAR No 38",
        "coordinates": [
            -92.936653104407,
            18.01174406630766
        ]
    },
    {
        "FID": 35,
        "ID": 189,
        "name": "CENTRO DE SALUD LA MANGA",
        "coordinates": [
            -92.909389043335011,
            18.000800092984019
        ]
    },
    {
        "FID": 36,
        "ID": 191,
        "name": "SIN name",
        "coordinates": [
            -92.926759377240941,
            17.996035869934143
        ]
    },
    {
        "FID": 37,
        "ID": 194,
        "name": "UNIDAD MULTIMEDICA",
        "coordinates": [
            -92.929002543563286,
            17.995667826282979
        ]
    },
    {
        "FID": 38,
        "ID": 195,
        "name": "UNIDAD OFTALMOLOGICA",
        "coordinates": [
            -92.929430765462513,
            17.995401707028908
        ]
    },
    {
        "FID": 39,
        "ID": 196,
        "name": "SIN name",
        "coordinates": [
            -92.918601258066474,
            17.992085484121016
        ]
    },
    {
        "FID": 40,
        "ID": 197,
        "name": "SANTA CRUZ",
        "coordinates": [
            -92.919705256964789,
            17.993141751619859
        ]
    },
    {
        "FID": 41,
        "ID": 198,
        "name": "MATERNIDAD VILLAHERMOSA",
        "coordinates": [
            -92.921515718829212,
            17.993827192561785
        ]
    },
    {
        "FID": 42,
        "ID": 200,
        "name": "IMSS",
        "coordinates": [
            -92.927809540557888,
            17.99307904953395
        ]
    },
    {
        "FID": 43,
        "ID": 201,
        "name": "SIN name",
        "coordinates": [
            -92.927236005860905,
            17.992591595755499
        ]
    },
    {
        "FID": 44,
        "ID": 202,
        "name": "DEL SURESTE",
        "coordinates": [
            -92.930973305203068,
            17.992694627898775
        ]
    },
    {
        "FID": 45,
        "ID": 203,
        "name": "PEDIATRICA",
        "coordinates": [
            -92.928669608593196,
            17.993404965669345
        ]
    },
    {
        "FID": 46,
        "ID": 204,
        "name": "CENTRO MEDICO QUIRURGICO",
        "coordinates": [
            -92.930599279970565,
            17.990939932511587
        ]
    },
    {
        "FID": 47,
        "ID": 205,
        "name": "CLINICA DEL PASEO",
        "coordinates": [
            -92.931432226353778,
            17.991257418164981
        ]
    },
    {
        "FID": 48,
        "ID": 206,
        "name": "SIN name",
        "coordinates": [
            -92.921655861519412,
            17.990465056031546
        ]
    },
    {
        "FID": 49,
        "ID": 207,
        "name": "SIN name",
        "coordinates": [
            -92.920796547030932,
            17.990368345228944
        ]
    },
    {
        "FID": 50,
        "ID": 208,
        "name": "SIN name",
        "coordinates": [
            -92.919268663217835,
            17.990469086130716
        ]
    },
    {
        "FID": 51,
        "ID": 209,
        "name": "27 DE FEBRERO",
        "coordinates": [
            -92.923190537717176,
            17.989444781682209
        ]
    },
    {
        "FID": 52,
        "ID": 213,
        "name": "IMSS SOLIDARIDAD",
        "coordinates": [
            -92.911469586132412,
            17.981625867058405
        ]
    },
    {
        "FID": 53,
        "ID": 214,
        "name": "CENTRO DE SALUD SAN JOSE",
        "coordinates": [
            -92.906096560452255,
            17.981233761031532
        ]
    },
    {
        "FID": 54,
        "ID": 215,
        "name": "IMSS",
        "coordinates": [
            -92.906662974531628,
            17.980427491250783
        ]
    },
    {
        "FID": 55,
        "ID": 221,
        "name": "CENTRO DE SALUD",
        "coordinates": [
            -92.933130558135687,
            18.03245868033796
        ]
    },
    {
        "FID": 56,
        "ID": 654,
        "name": "SSA",
        "coordinates": [
            -92.921859377329525,
            18.014503893427335
        ]
    },
    {
        "FID": 57,
        "ID": 655,
        "name": "MEDICA CIEM",
        "coordinates": [
            -92.927423921152709,
            17.999688191565959
        ]
    },
    {
        "FID": 58,
        "ID": 656,
        "name": "DE PEMEX",
        "coordinates": [
            -92.923371790007963,
            17.996547094935117
        ]
    },
    {
        "FID": 59,
        "ID": 657,
        "name": "SIN name",
        "coordinates": [
            -92.922061082283008,
            17.990572763620456
        ]
    },
    {
        "FID": 60,
        "ID": 658,
        "name": "UNIDAD MEDICA AZTECA",
        "coordinates": [
            -92.925950445076225,
            17.98994847110086
        ]
    },
    {
        "FID": 61,
        "ID": 659,
        "name": "EL BUEN SAMARITANO",
        "coordinates": [
            -92.92600474593695,
            17.989603317241802
        ]
    },
    {
        "FID": 62,
        "ID": 660,
        "name": "SIN name",
        "coordinates": [
            -92.920182565963373,
            17.987889164135254
        ]
    },
    {
        "FID": 63,
        "ID": 673,
        "name": "ESPECIALIDADES MEDICAS DE TABASCO",
        "coordinates": [
            -92.9274532705724,
            17.999401537339079
        ]
    },
    {
        "FID": 64,
        "ID": 674,
        "name": "SERVICIO DE ASISTENCIA MEDICA",
        "coordinates": [
            -92.918837479948095,
            17.992378034689352
        ]
    },
    {
        "FID": 65,
        "ID": 677,
        "name": "SIN name",
        "coordinates": [
            -92.922516423837791,
            17.984727934606852
        ]
    },
    {
        "FID": 66,
        "ID": 691,
        "name": "IMSS",
        "coordinates": [
            -92.916014373406455,
            18.014420492103294
        ]
    },
    {
        "FID": 67,
        "ID": 692,
        "name": "ISSSTE",
        "coordinates": [
            -92.915329031108556,
            18.001102016029392
        ]
    },
    {
        "FID": 68,
        "ID": 724,
        "name": "ESPECIALIDADES MEDICAS",
        "coordinates": [
            -92.925669353092516,
            17.995688500679343
        ]
    },
    {
        "FID": 69,
        "ID": 727,
        "name": "TEO",
        "coordinates": [
            -92.929103597702053,
            17.993879336851116
        ]
    },
    {
        "FID": 70,
        "ID": 728,
        "name": "DE ESPECIALIDADES",
        "coordinates": [
            -92.932079227221479,
            17.993044283433086
        ]
    },
    {
        "FID": 71,
        "ID": 729,
        "name": "LABORATORIO REGIONAL DE SALUD PUBLICA",
        "coordinates": [
            -92.922151596892732,
            18.010931261548532
        ]
    },
    {
        "FID": 72,
        "ID": 790,
        "name": "TOMOGRAFO",
        "coordinates": [
            -92.953628261735957,
            17.977846080304072
        ]
    },
    {
        "FID": 73,
        "ID": 847,
        "name": "AIR 2000",
        "coordinates": [
            -92.936121780291529,
            17.994395830366191
        ]
    },
    {
        "FID": 74,
        "ID": 865,
        "name": "JUAN GRAHAM CASASUS",
        "coordinates": [
            -92.986901174043609,
            17.978037043458013
        ]
    },
    {
        "FID": 75,
        "ID": 867,
        "name": "IMSS",
        "coordinates": [
            -92.903936935865019,
            18.017596349872125
        ]
    },
    {
        "FID": 76,
        "ID": 879,
        "name": "SAN MARCOS",
        "coordinates": [
            -92.93529243458336,
            17.98989368586011
        ]
    },
    {
        "FID": 77,
        "ID": 893,
        "name": "CENTRO DE REHABILITACION",
        "coordinates": [
            -92.903382819494098,
            18.017181636063551
        ]
    },
    {
        "FID": 78,
        "ID": 899,
        "name": "MEDICINA FAMILIAR",
        "coordinates": [
            -92.917832797132718,
            17.978537291819116
        ]
    },
    {
        "FID": 79,
        "ID": 900,
        "name": "PSICOPEDAGOGICA",
        "coordinates": [
            -92.926744120743976,
            17.975714040594909
        ]
    },
    {
        "FID": 80,
        "ID": 928,
        "name": "CLINICA VIDAL",
        "coordinates": [
            -92.928875403135024,
            17.985643921059008
        ]
    },
    {
        "FID": 81,
        "ID": 953,
        "name": "UNIDAD MEDICA FAMILIAR 66",
        "coordinates": [
            -92.901372390616046,
            18.02465179053889
        ]
    },
    {
        "FID": 82,
        "ID": 954,
        "name": "CENTRO DE SALUD",
        "coordinates": [
            -92.923753780996805,
            17.998143437395498
        ]
    },
    {
        "FID": 83,
        "ID": 994,
        "name": "CENTRO DE SALUD",
        "coordinates": [
            -92.903215109322844,
            18.008596338839666
        ]
    },
    {
        "FID": 84,
        "ID": 995,
        "name": "ODONTO SUR",
        "coordinates": [
            -92.949083319932754,
            17.998870455738643
        ]
    }
]